{
  "type": "FeatureCollection",
  "features": [
    {
      "type": "Feature",
      "properties": {
        "type": "node",
        "id": 273118710,
        "tags": {
          "check_date:opening_hours": "2025-09-07",
          "name": "Bilete RATB",
          "opening_hours": "Mo-Fr 06:00-20:00",
          "shop": "ticket",
          "source": "Imported with help from Dragos Oprea",
          "wheelchair": "yes"
        }
      },
      "geometry": {
        "type": "Point",
        "coordinates": [
          26.1347956,
          44.4463387
        ]
      }
    },
    {
      "type": "Feature",
      "properties": {
        "type": "node",
        "id": 440159105,
        "tags": {
          "addr:city": "Bucure\u0219ti",
          "addr:housenumber": "33",
          "addr:street": "\u0218oseaua Iancului",
          "alt_name": "Mega Image Iancului",
          "brand": "Mega Image",
          "brand:wikidata": "Q6808085",
          "is_in:city": "Bucure\u0219ti",
          "name": "Mega Image",
          "opening_hours": "Mo-Su 07:00-22:00",
          "shop": "supermarket",
          "source": "survey",
          "wheelchair": "yes"
        }
      },
      "geometry": {
        "type": "Point",
        "coordinates": [
          26.1423286,
          44.4424287
        ]
      }
    },
    {
      "type": "Feature",
      "properties": {
        "type": "node",
        "id": 440159108,
        "tags": {
          "addr:city": "Bucure\u0219ti",
          "addr:housenumber": "112",
          "addr:postcode": "021642",
          "addr:street": "\u0218oseaua Pantelimon",
          "brand": "Mega Image",
          "brand:wikidata": "Q6808085",
          "check_date:opening_hours": "2025-10-03",
          "is_in:city": "Bucure\u0219ti",
          "name": "Mega Image",
          "opening_hours": "Mo-Su 08:00-22:00",
          "shop": "supermarket"
        }
      },
      "geometry": {
        "type": "Point",
        "coordinates": [
          26.1446288,
          44.4439122
        ]
      }
    },
    {
      "type": "Feature",
      "properties": {
        "type": "node",
        "id": 440190212,
        "tags": {
          "addr:city": "Bucure\u0219ti",
          "addr:housenumber": "243",
          "addr:street": "\u0218oseaua Pantelimon",
          "alt_name": "Mega Image Pantelimon",
          "brand": "Mega Image",
          "brand:wikidata": "Q6808085",
          "is_in:city": "Bucure\u0219ti",
          "name": "Mega Image",
          "name:ro": "Mega Image",
          "opening_hours": "Mo-Su 07:00-21:00",
          "operator": "Mega Image",
          "shop": "supermarket",
          "wheelchair": "yes"
        }
      },
      "geometry": {
        "type": "Point",
        "coordinates": [
          26.1550656,
          44.4434025
        ]
      }
    },
    {
      "type": "Feature",
      "properties": {
        "type": "node",
        "id": 559958670,
        "tags": {
          "check_date:opening_hours": "2024-07-04",
          "is_in:city": "Bucure\u0219ti",
          "name": "InterMacedonia",
          "opening_hours": "Mo-Sa 08:00-21:00",
          "shop": "supermarket",
          "wheelchair": "yes"
        }
      },
      "geometry": {
        "type": "Point",
        "coordinates": [
          26.1332752,
          44.4416352
        ]
      }
    },
    {
      "type": "Feature",
      "properties": {
        "type": "node",
        "id": 559958674,
        "tags": {
          "check_date": "2023-05-20",
          "name": "Max Stil",
          "shop": "hairdresser"
        }
      },
      "geometry": {
        "type": "Point",
        "coordinates": [
          26.1315892,
          44.441944
        ]
      }
    },
    {
      "type": "Feature",
      "properties": {
        "type": "node",
        "id": 659012039,
        "tags": {
          "addr:city": "Bucure\u0219ti",
          "addr:housenumber": "25-29",
          "addr:postcode": "030964",
          "addr:postcode:source": "Date de la Po\u0219ta Rom\u00e2n\u0103, publicate sub Licen\u021ba pentru Guvernare Deschis\u0103 v1.0 la http://date.gov.ro/organization/posta-romana",
          "addr:street": "Bulevardul Decebal",
          "alt_name": "Mega Image Pia\u021ba Muncii",
          "brand": "Mega Image",
          "brand:wikidata": "Q6808085",
          "brand:wikipedia": "en:Mega Image",
          "is_in:city": "Bucure\u0219ti",
          "name": "Mega Image",
          "opening_hours": "24/7",
          "operator": "Mega Image",
          "shop": "supermarket",
          "wheelchair": "yes"
        }
      },
      "geometry": {
        "type": "Point",
        "coordinates": [
          26.1374176,
          44.4315864
        ]
      }
    },
    {
      "type": "Feature",
      "properties": {
        "type": "node",
        "id": 885364085,
        "tags": {
          "addr:city": "Bucure\u0219ti",
          "addr:housenumber": "176A",
          "addr:street": "\u0218oseaua Mihai Bravu",
          "alt_name": "Mega Image Maior Coravu",
          "brand": "Mega Image",
          "brand:wikidata": "Q6808085",
          "is_in:city": "Bucure\u0219ti",
          "name": "Mega Image",
          "opening_hours": "Mo-Th 07:00-21:00; Fr-Su 07:00-18:00",
          "shop": "supermarket",
          "wheelchair": "limited"
        }
      },
      "geometry": {
        "type": "Point",
        "coordinates": [
          26.1365166,
          44.4360355
        ]
      }
    },
    {
      "type": "Feature",
      "properties": {
        "type": "node",
        "id": 1123225136,
        "tags": {
          "addr:city": "Bucure\u0219ti",
          "is_in:city": "Bucure\u0219ti",
          "name": "Miovi Design S.R.L",
          "shop": "doityourself",
          "website": "http://miovidesign.ro",
          "wheelchair": "limited"
        }
      },
      "geometry": {
        "type": "Point",
        "coordinates": [
          26.154111,
          44.4429159
        ]
      }
    },
    {
      "type": "Feature",
      "properties": {
        "type": "node",
        "id": 1212940340,
        "tags": {
          "addr:city": "Bucure\u0219ti",
          "addr:housenumber": "94",
          "addr:postcode": "021638",
          "addr:street": "\u0218oseaua Pantelimon",
          "check_date:opening_hours": "2024-07-04",
          "is_in:city": "Bucure\u0219ti",
          "name": "BikeXpert",
          "opening_hours": "Mo 14:00-20:00; Tu-Fr 10:00-20:00; Sa 09:00-15:00",
          "operator": "Bikexpert",
          "phone": "+4 021 250 35 28",
          "service:bicycle:pump": "no",
          "shop": "bicycle",
          "website": "https://www.bikexpert.ro/",
          "wheelchair": "no"
        }
      },
      "geometry": {
        "type": "Point",
        "coordinates": [
          26.1426363,
          44.4441408
        ]
      }
    },
    {
      "type": "Feature",
      "properties": {
        "type": "node",
        "id": 1244329272,
        "tags": {
          "addr:city": "Bucure\u0219ti",
          "is_in:city": "Bucure\u0219ti",
          "name": "Max Stil Salon de \u00cenfrumuse\u021bare",
          "opening_hours": "\"by appointment\"",
          "shop": "hairdresser"
        }
      },
      "geometry": {
        "type": "Point",
        "coordinates": [
          26.1555102,
          44.4428866
        ]
      }
    },
    {
      "type": "Feature",
      "properties": {
        "type": "node",
        "id": 1273328819,
        "tags": {
          "addr:city": "Bucure\u0219ti",
          "addr:street": "Strada Ritmului",
          "brand": "Annabella",
          "brand:wikidata": "Q127785313",
          "check_date": "2025-12-01",
          "contact:email": "office@annabella.ro",
          "contact:phone": "+40250746901",
          "contact:website": "https://www.annabella.ro/",
          "contact:youtube": "https://www.youtube.com/user/magazineleprofi",
          "is_in:city": "Bucure\u0219ti",
          "name": "Annabella",
          "opening_hours": "Mo-Su 07:00-22:00",
          "operator": "SC ANNABELLA SRL",
          "shop": "supermarket",
          "website": "https://www.annabella.ro/",
          "wheelchair": "yes"
        }
      },
      "geometry": {
        "type": "Point",
        "coordinates": [
          26.1356794,
          44.4447613
        ]
      }
    },
    {
      "type": "Feature",
      "properties": {
        "type": "node",
        "id": 1537975316,
        "tags": {
          "name": "West Market",
          "opening_hours": "Mo-Fr 10:00-19:00; Sa 10:00-15:00",
          "shop": "convenience",
          "wheelchair": "limited"
        }
      },
      "geometry": {
        "type": "Point",
        "coordinates": [
          26.1404922,
          44.438527
        ]
      }
    },
    {
      "type": "Feature",
      "properties": {
        "type": "node",
        "id": 1674583371,
        "tags": {
          "addr:city": "Bucure\u0219ti",
          "addr:housenumber": "2",
          "addr:street": "Strada Delea Nou\u0103",
          "alt_name": "Mega Image Delea Nou\u0103",
          "brand": "Mega Image",
          "brand:wikidata": "Q6808085",
          "name": "Mega Image",
          "opening_hours": "Mo-Su 00:00-24:00",
          "shop": "supermarket",
          "wheelchair": "yes"
        }
      },
      "geometry": {
        "type": "Point",
        "coordinates": [
          26.1296297,
          44.4315268
        ]
      }
    },
    {
      "type": "Feature",
      "properties": {
        "type": "node",
        "id": 1725768055,
        "tags": {
          "addr:city": "Bucure\u0219ti",
          "addr:street": "\u0218oseaua Pantelimon",
          "brand": "Froo",
          "brand:wikidata": "Q129262066",
          "name": "Froo",
          "shop": "convenience",
          "wheelchair": "yes"
        }
      },
      "geometry": {
        "type": "Point",
        "coordinates": [
          26.1634066,
          44.4428654
        ]
      }
    },
    {
      "type": "Feature",
      "properties": {
        "type": "node",
        "id": 1725768092,
        "tags": {
          "addr:city": "Bucure\u0219ti",
          "addr:street": "\u0218oseaua Pantelimon",
          "is_in:city": "Bucure\u0219ti",
          "name": "Scala",
          "opening_hours": "Mo-Sa 07:00-18:00; Su 09:00-16:00",
          "shop": "bakery",
          "wheelchair": "no"
        }
      },
      "geometry": {
        "type": "Point",
        "coordinates": [
          26.1633126,
          44.4428688
        ]
      }
    },
    {
      "type": "Feature",
      "properties": {
        "type": "node",
        "id": 1725768093,
        "tags": {
          "addr:city": "Bucure\u0219ti",
          "addr:street": "\u0218oseaua Pantelimon",
          "is_in:city": "Bucure\u0219ti",
          "name": "Mobtimus",
          "opening_hours": "Mo-Fr 09:00-18:00; Sa 09:00-16:00",
          "shop": "furniture",
          "wheelchair": "limited"
        }
      },
      "geometry": {
        "type": "Point",
        "coordinates": [
          26.162273,
          44.4429066
        ]
      }
    },
    {
      "type": "Feature",
      "properties": {
        "type": "node",
        "id": 1725768094,
        "tags": {
          "addr:city": "Bucure\u0219ti",
          "addr:housenumber": "286",
          "addr:street": "\u0218oseaua Pantelimon",
          "alt_name": "Mega Image Pant. Morarilor",
          "brand": "Mega Image",
          "brand:wikidata": "Q6808085",
          "check_date:opening_hours": "2021-03-08",
          "is_in:city": "Bucure\u0219ti",
          "name": "Mega Image",
          "opening_hours": "Mo-Su 08:00-24:00",
          "shop": "supermarket",
          "wheelchair": "yes"
        }
      },
      "geometry": {
        "type": "Point",
        "coordinates": [
          26.1629333,
          44.4423544
        ]
      }
    },
    {
      "type": "Feature",
      "properties": {
        "type": "node",
        "id": 1726032270,
        "tags": {
          "addr:city": "Bucure\u0219ti",
          "addr:housenumber": "130",
          "addr:postcode": "030628",
          "addr:postcode:source": "Date de la Po\u0219ta Rom\u00e2n\u0103, publicate sub Licen\u021ba pentru Guvernare Deschis\u0103 v1.0 la http://date.gov.ro/organization/posta-romana",
          "addr:street": "Calea C\u0103l\u0103ra\u0219ilor",
          "name": "Temple Of Bliss",
          "phone": "+40 787 571 747",
          "shop": "massage",
          "website": "https://templeofbliss.ro/"
        }
      },
      "geometry": {
        "type": "Point",
        "coordinates": [
          26.1213412,
          44.4329057
        ]
      }
    },
    {
      "type": "Feature",
      "properties": {
        "type": "node",
        "id": 1744230966,
        "tags": {
          "addr:city": "Bucure\u0219ti",
          "name": "Reefaquarium",
          "shop": "pet"
        }
      },
      "geometry": {
        "type": "Point",
        "coordinates": [
          26.1540917,
          44.4428518
        ]
      }
    },
    {
      "type": "Feature",
      "properties": {
        "type": "node",
        "id": 1744384222,
        "tags": {
          "addr:city": "Bucure\u0219ti",
          "name": "Monda",
          "opening_hours": "Mo-Fr 09:00-20:00; Sa,Su 09:00-17:00",
          "second_hand": "only",
          "shop": "clothes",
          "wheelchair": "limited"
        }
      },
      "geometry": {
        "type": "Point",
        "coordinates": [
          26.154112,
          44.4434256
        ]
      }
    },
    {
      "type": "Feature",
      "properties": {
        "type": "node",
        "id": 1744384227,
        "tags": {
          "check_date:opening_hours": "2024-12-19",
          "name": "Famous Boy's",
          "opening_hours:signed": "no",
          "shop": "clothes"
        }
      },
      "geometry": {
        "type": "Point",
        "coordinates": [
          26.1539192,
          44.4434349
        ]
      }
    },
    {
      "type": "Feature",
      "properties": {
        "type": "node",
        "id": 1744583936,
        "tags": {
          "is_in:city": "Bucure\u0219ti",
          "name": "Butic Ziare",
          "shop": "kiosk"
        }
      },
      "geometry": {
        "type": "Point",
        "coordinates": [
          26.1558853,
          44.4431616
        ]
      }
    },
    {
      "type": "Feature",
      "properties": {
        "type": "node",
        "id": 1744583947,
        "tags": {
          "brand": "Vodafone",
          "brand:wikidata": "Q122141",
          "is_in:city": "Bucure\u0219ti",
          "name": "Vodafone",
          "opening_hours": "Mo-Fr 09:00-19:30; Sa 09:00-14:00",
          "shop": "mobile_phone",
          "wheelchair": "no"
        }
      },
      "geometry": {
        "type": "Point",
        "coordinates": [
          26.1558538,
          44.443282
        ]
      }
    },
    {
      "type": "Feature",
      "properties": {
        "type": "node",
        "id": 1744583973,
        "tags": {
          "name": "Mega Shop",
          "shop": "yes"
        }
      },
      "geometry": {
        "type": "Point",
        "coordinates": [
          26.1567716,
          44.4425532
        ]
      }
    },
    {
      "type": "Feature",
      "properties": {
        "type": "node",
        "id": 1744583974,
        "tags": {
          "addr:city": "Bucure\u0219ti",
          "brand": "Luca",
          "brand:wikidata": "Q114647790",
          "is_in:city": "Bucure\u0219ti",
          "name": "Luca",
          "opening_hours:signed": "no",
          "shop": "bakery",
          "wheelchair": "yes"
        }
      },
      "geometry": {
        "type": "Point",
        "coordinates": [
          26.1561977,
          44.4432591
        ]
      }
    },
    {
      "type": "Feature",
      "properties": {
        "type": "node",
        "id": 1744583981,
        "tags": {
          "addr:city": "Bucure\u0219ti",
          "check_date:opening_hours": "2022-05-03",
          "is_in:city": "Bucure\u0219ti",
          "name": "STB - Casa bilete",
          "opening_hours": "Mo-Su 06:00-20:30",
          "operator": "Societatea de Transport Bucure\u0219ti",
          "operator:wikidata": "Q2280353",
          "shop": "ticket",
          "wheelchair": "yes"
        }
      },
      "geometry": {
        "type": "Point",
        "coordinates": [
          26.1570826,
          44.4422427
        ]
      }
    },
    {
      "type": "Feature",
      "properties": {
        "type": "node",
        "id": 1744583984,
        "tags": {
          "addr:city": "Bucure\u0219ti",
          "addr:housenumber": "245",
          "addr:postcode": "021609",
          "addr:street": "\u0218oseaua Pantelimon",
          "brand": "Orange",
          "brand:wikidata": "Q1431486",
          "brand:wikipedia": "fr:Orange (entreprise)",
          "name": "Orange",
          "opening_hours": "Mo-Fr 08:30-19:30; Sa 09:00-16:00",
          "shop": "mobile_phone",
          "wheelchair": "yes"
        }
      },
      "geometry": {
        "type": "Point",
        "coordinates": [
          26.1566351,
          44.4433129
        ]
      }
    },
    {
      "type": "Feature",
      "properties": {
        "type": "node",
        "id": 1744583985,
        "tags": {
          "addr:city": "Bucure\u0219ti",
          "check_date:opening_hours": "2024-12-24",
          "is_in:city": "Bucure\u0219ti",
          "name": "Folder",
          "opening_hours": "Mo-Fr 08:30-20:00; Sa 09:00-14:00",
          "shop": "books",
          "wheelchair": "yes"
        }
      },
      "geometry": {
        "type": "Point",
        "coordinates": [
          26.1562881,
          44.4427645
        ]
      }
    },
    {
      "type": "Feature",
      "properties": {
        "type": "node",
        "id": 1744636472,
        "tags": {
          "name": "Flor\u0103rie",
          "opening_hours:signed": "no",
          "shop": "florist",
          "wheelchair": "yes"
        }
      },
      "geometry": {
        "type": "Point",
        "coordinates": [
          26.1582673,
          44.4384974
        ]
      }
    },
    {
      "type": "Feature",
      "properties": {
        "type": "node",
        "id": 1744636474,
        "tags": {
          "name": "Fructe Legume",
          "opening_hours": "Mo-Sa 08:00-21:00; Su 08:00-16:00",
          "organic": "no",
          "shop": "kiosk"
        }
      },
      "geometry": {
        "type": "Point",
        "coordinates": [
          26.1575595,
          44.4400694
        ]
      }
    },
    {
      "type": "Feature",
      "properties": {
        "type": "node",
        "id": 1744636483,
        "tags": {
          "name": "La Grigore",
          "opening_hours:signed": "no",
          "shop": "convenience"
        }
      },
      "geometry": {
        "type": "Point",
        "coordinates": [
          26.1583811,
          44.4378158
        ]
      }
    },
    {
      "type": "Feature",
      "properties": {
        "type": "node",
        "id": 1744636484,
        "tags": {
          "name": "MiniMarket \"La Puiu\" Non-Stop",
          "opening_hours": "24/7",
          "shop": "convenience",
          "source": "survey"
        }
      },
      "geometry": {
        "type": "Point",
        "coordinates": [
          26.157546,
          44.4399889
        ]
      }
    },
    {
      "type": "Feature",
      "properties": {
        "type": "node",
        "id": 1744636486,
        "tags": {
          "name": "Pet Shop",
          "opening_hours": "Mo-Fr 09:00-21:00; Sa 09:00-16:00; Su 09:00-14:00",
          "shop": "pet"
        }
      },
      "geometry": {
        "type": "Point",
        "coordinates": [
          26.1589897,
          44.4379891
        ]
      }
    },
    {
      "type": "Feature",
      "properties": {
        "type": "node",
        "id": 1744636487,
        "tags": {
          "name": "Computer Shop",
          "opening_hours": "Mo-Fr 09:00-18:00; Sa 09:00-14:00",
          "shop": "computer",
          "wheelchair": "no"
        }
      },
      "geometry": {
        "type": "Point",
        "coordinates": [
          26.1577738,
          44.4393686
        ]
      }
    },
    {
      "type": "Feature",
      "properties": {
        "type": "node",
        "id": 1744636491,
        "tags": {
          "name": "Salon de \u00eenfrumus\u021bare",
          "shop": "hairdresser"
        }
      },
      "geometry": {
        "type": "Point",
        "coordinates": [
          26.1589389,
          44.4380853
        ]
      }
    },
    {
      "type": "Feature",
      "properties": {
        "type": "node",
        "id": 1744636493,
        "tags": {
          "name": "Sandra Klein",
          "opening_hours:signed": "no",
          "shop": "hairdresser",
          "wheelchair": "no"
        }
      },
      "geometry": {
        "type": "Point",
        "coordinates": [
          26.1578253,
          44.4392241
        ]
      }
    },
    {
      "type": "Feature",
      "properties": {
        "type": "node",
        "id": 1744636494,
        "tags": {
          "name": "Servicii Funerare",
          "opening_hours": "Mo-Fr 09:00-19:00; Sa 09:00-18:00; Su 09:00-16:00",
          "shop": "funeral_directors"
        }
      },
      "geometry": {
        "type": "Point",
        "coordinates": [
          26.1575042,
          44.4401676
        ]
      }
    },
    {
      "type": "Feature",
      "properties": {
        "type": "node",
        "id": 1744636496,
        "tags": {
          "name": "Tezaur Amanet",
          "opening_hours": "Mo-Fr 09:00-18:00",
          "shop": "pawnbroker",
          "wheelchair": "limited"
        }
      },
      "geometry": {
        "type": "Point",
        "coordinates": [
          26.1582821,
          44.4380291
        ]
      }
    },
    {
      "type": "Feature",
      "properties": {
        "type": "node",
        "id": 1744636497,
        "tags": {
          "name": "Toneta ziare",
          "opening_hours:signed": "no",
          "shop": "kiosk"
        }
      },
      "geometry": {
        "type": "Point",
        "coordinates": [
          26.1582795,
          44.4384317
        ]
      }
    },
    {
      "type": "Feature",
      "properties": {
        "type": "node",
        "id": 1744636499,
        "tags": {
          "name": "XEROX",
          "opening_hours": "Mo-Th 09:00-18:00; Fr 09:00-16:00",
          "shop": "copyshop",
          "wheelchair": "no"
        }
      },
      "geometry": {
        "type": "Point",
        "coordinates": [
          26.1577319,
          44.4394991
        ]
      }
    },
    {
      "type": "Feature",
      "properties": {
        "type": "node",
        "id": 1761087333,
        "tags": {
          "name": "Magazin Alimentar",
          "shop": "convenience"
        }
      },
      "geometry": {
        "type": "Point",
        "coordinates": [
          26.1208023,
          44.4594836
        ]
      }
    },
    {
      "type": "Feature",
      "properties": {
        "type": "node",
        "id": 1761087336,
        "tags": {
          "addr:city": "Bucure\u0219ti",
          "name": "Mini Market",
          "opening_hours": "Mo-Su 07:00-23:00",
          "shop": "convenience"
        }
      },
      "geometry": {
        "type": "Point",
        "coordinates": [
          26.1200665,
          44.4583008
        ]
      }
    },
    {
      "type": "Feature",
      "properties": {
        "type": "node",
        "id": 1761087338,
        "tags": {
          "addr:city": "Bucure\u0219ti",
          "name": "Mini Market",
          "opening_hours": "24/7",
          "shop": "convenience"
        }
      },
      "geometry": {
        "type": "Point",
        "coordinates": [
          26.1199878,
          44.458525
        ]
      }
    },
    {
      "type": "Feature",
      "properties": {
        "type": "node",
        "id": 1761087343,
        "tags": {
          "addr:city": "Bucure\u0219ti",
          "name": "Oglinzi, Geamuri",
          "opening_hours": "Mo-Fr 09:00-17:00",
          "shop": "frame"
        }
      },
      "geometry": {
        "type": "Point",
        "coordinates": [
          26.1200546,
          44.4583553
        ]
      }
    },
    {
      "type": "Feature",
      "properties": {
        "type": "node",
        "id": 1761087345,
        "tags": {
          "addr:city": "Bucure\u0219ti",
          "name": "Piese Auto",
          "opening_hours": "Mo-Fr 09:00-18:00; Sa 09:00-13:00",
          "shop": "car_repair"
        }
      },
      "geometry": {
        "type": "Point",
        "coordinates": [
          26.1200431,
          44.4581955
        ]
      }
    },
    {
      "type": "Feature",
      "properties": {
        "type": "node",
        "id": 1761087353,
        "tags": {
          "name": "Vin\u0103rie",
          "shop": "alcohol"
        }
      },
      "geometry": {
        "type": "Point",
        "coordinates": [
          26.1206005,
          44.4594068
        ]
      }
    },
    {
      "type": "Feature",
      "properties": {
        "type": "node",
        "id": 1814915100,
        "tags": {
          "addr:city": "Bucure\u0219ti",
          "brand": "Fornetti",
          "brand:wikidata": "Q1003020",
          "name": "Fornetti",
          "shop": "bakery"
        }
      },
      "geometry": {
        "type": "Point",
        "coordinates": [
          26.1245608,
          44.4501542
        ]
      }
    },
    {
      "type": "Feature",
      "properties": {
        "type": "node",
        "id": 1814915101,
        "tags": {
          "addr:city": "Bucure\u0219ti",
          "name": "Flor\u0103rie",
          "shop": "florist"
        }
      },
      "geometry": {
        "type": "Point",
        "coordinates": [
          26.1219462,
          44.4510237
        ]
      }
    },
    {
      "type": "Feature",
      "properties": {
        "type": "node",
        "id": 1814915102,
        "tags": {
          "addr:city": "Bucure\u0219ti",
          "name": "Flor\u0103rie",
          "opening_hours": "Mo-Su 08:00-20:00",
          "shop": "florist"
        }
      },
      "geometry": {
        "type": "Point",
        "coordinates": [
          26.1198932,
          44.4515426
        ]
      }
    },
    {
      "type": "Feature",
      "properties": {
        "type": "node",
        "id": 1814915103,
        "tags": {
          "addr:city": "Bucure\u0219ti",
          "name": "Frizerie",
          "shop": "hairdresser"
        }
      },
      "geometry": {
        "type": "Point",
        "coordinates": [
          26.122999,
          44.4511071
        ]
      }
    },
    {
      "type": "Feature",
      "properties": {
        "type": "node",
        "id": 1814915105,
        "tags": {
          "addr:city": "Bucure\u0219ti",
          "addr:housenumber": "238",
          "addr:street": "\u0218oseaua \u0218tefan cel Mare",
          "alt_name": "Mega Image Obor",
          "brand": "Mega Image",
          "brand:wikidata": "Q6808085",
          "check_date": "2023-09-25",
          "level": "0",
          "name": "Mega Image",
          "opening_hours": "06:00-23:00",
          "payment:mastercard": "yes",
          "payment:visa": "yes",
          "shop": "supermarket",
          "wheelchair": "no"
        }
      },
      "geometry": {
        "type": "Point",
        "coordinates": [
          26.1235889,
          44.4499669
        ]
      }
    },
    {
      "type": "Feature",
      "properties": {
        "type": "node",
        "id": 1814915106,
        "tags": {
          "addr:city": "Bucure\u0219ti",
          "name": "Oftalmologie",
          "shop": "optician"
        }
      },
      "geometry": {
        "type": "Point",
        "coordinates": [
          26.1228131,
          44.4511976
        ]
      }
    },
    {
      "type": "Feature",
      "properties": {
        "type": "node",
        "id": 1814915109,
        "tags": {
          "addr:city": "Bucure\u0219ti",
          "beauty": "tanning",
          "name": "Salon Bronzare Violet Sun",
          "shop": "beauty"
        }
      },
      "geometry": {
        "type": "Point",
        "coordinates": [
          26.12225,
          44.4514215
        ]
      }
    },
    {
      "type": "Feature",
      "properties": {
        "type": "node",
        "id": 1814926276,
        "tags": {
          "addr:city": "Bucure\u0219ti",
          "name": "Flor\u0103rie",
          "shop": "florist"
        }
      },
      "geometry": {
        "type": "Point",
        "coordinates": [
          26.11988,
          44.4522275
        ]
      }
    },
    {
      "type": "Feature",
      "properties": {
        "type": "node",
        "id": 1814926285,
        "tags": {
          "addr:city": "Bucure\u0219ti",
          "addr:housenumber": "226",
          "addr:street": "\u0218oseaua \u0218tefan cel Mare",
          "alt_name": "Mega Image Lizeanu Non-Stop",
          "brand": "Mega Image",
          "brand:wikidata": "Q6808085",
          "name": "Mega Image",
          "opening_hours": "24/7",
          "shop": "supermarket",
          "source": "survey",
          "wheelchair": "limited"
        }
      },
      "geometry": {
        "type": "Point",
        "coordinates": [
          26.1201874,
          44.4515764
        ]
      }
    },
    {
      "type": "Feature",
      "properties": {
        "type": "node",
        "id": 1814926288,
        "tags": {
          "addr:city": "Bucure\u0219ti",
          "name": "Optic\u0103 Medical\u0103",
          "opening_hours": "Mo-Fr 08:00-19:00; Sa 10:00-14:00",
          "shop": "optician",
          "wheelchair": "limited"
        }
      },
      "geometry": {
        "type": "Point",
        "coordinates": [
          26.1208167,
          44.4520156
        ]
      }
    },
    {
      "type": "Feature",
      "properties": {
        "type": "node",
        "id": 1814937282,
        "tags": {
          "addr:city": "Bucure\u0219ti",
          "addr:housenumber": "146",
          "addr:postcode": "021647",
          "addr:street": "\u0218oseaua Pantelimon",
          "check_date:opening_hours": "2024-12-20",
          "name": "Euromobila",
          "opening_hours": "Mo-Fr 10:00-19:00; Sa 10:00-14:00",
          "shop": "furniture",
          "wheelchair": "limited"
        }
      },
      "geometry": {
        "type": "Point",
        "coordinates": [
          26.1481536,
          44.4435294
        ]
      }
    },
    {
      "type": "Feature",
      "properties": {
        "type": "node",
        "id": 1814937285,
        "tags": {
          "check_date:opening_hours": "2022-04-27",
          "name": "Flor\u0103rie",
          "opening_hours": "Mo-Su 07:00-22:00",
          "shop": "florist",
          "wheelchair": "limited"
        }
      },
      "geometry": {
        "type": "Point",
        "coordinates": [
          26.1455509,
          44.4443626
        ]
      }
    },
    {
      "type": "Feature",
      "properties": {
        "type": "node",
        "id": 1814968671,
        "tags": {
          "check_date:opening_hours": "2022-05-08",
          "name": "Flor\u0103rie",
          "opening_hours:signed": "no",
          "shop": "florist",
          "wheelchair": "yes"
        }
      },
      "geometry": {
        "type": "Point",
        "coordinates": [
          26.1378294,
          44.4320368
        ]
      }
    },
    {
      "type": "Feature",
      "properties": {
        "type": "node",
        "id": 1814968674,
        "tags": {
          "addr:city": "Bucure\u0219ti",
          "addr:housenumber": "172",
          "addr:street": "\u0218oseaua Mihai Bravu",
          "name": "Flor\u0103rie Alina",
          "opening_hours": "Mo-Su 08:00-21:00",
          "opening_hours:signed": "no",
          "phone": "+40768522622",
          "shop": "florist"
        }
      },
      "geometry": {
        "type": "Point",
        "coordinates": [
          26.1362256,
          44.4370914
        ]
      }
    },
    {
      "type": "Feature",
      "properties": {
        "type": "node",
        "id": 1814968677,
        "tags": {
          "check_date:opening_hours": "2025-10-04",
          "name": "Flor\u0103rie",
          "opening_hours": "Mo-Su 08:00-22:00",
          "shop": "florist",
          "wheelchair": "limited"
        }
      },
      "geometry": {
        "type": "Point",
        "coordinates": [
          26.1367427,
          44.4375613
        ]
      }
    },
    {
      "type": "Feature",
      "properties": {
        "type": "node",
        "id": 1815602812,
        "tags": {
          "addr:city": "Bucure\u0219ti",
          "addr:housenumber": "4",
          "addr:postcode": "021691",
          "addr:street": "\u0218oseaua Iancului",
          "brand": "Mega Image",
          "brand:wikidata": "Q6808085",
          "brand:wikipedia": "en:Mega Image",
          "check_date:opening_hours": "2025-10-02",
          "is_in:city": "Bucure\u0219ti",
          "name": "Mega Image",
          "opening_hours": "Mo-Su 07:00-22:00",
          "shop": "supermarket",
          "wheelchair": "yes"
        }
      },
      "geometry": {
        "type": "Point",
        "coordinates": [
          26.1350937,
          44.44125
        ]
      }
    },
    {
      "type": "Feature",
      "properties": {
        "type": "node",
        "id": 1820022990,
        "tags": {
          "name": "Beauty Divine",
          "shop": "beauty"
        }
      },
      "geometry": {
        "type": "Point",
        "coordinates": [
          26.1318634,
          44.4579285
        ]
      }
    },
    {
      "type": "Feature",
      "properties": {
        "type": "node",
        "id": 1820022991,
        "tags": {
          "name": "Butan Gas",
          "shop": "gas"
        }
      },
      "geometry": {
        "type": "Point",
        "coordinates": [
          26.1355733,
          44.4539458
        ]
      }
    },
    {
      "type": "Feature",
      "properties": {
        "type": "node",
        "id": 1820023039,
        "tags": {
          "addr:city": "Bucure\u0219ti",
          "name": "MELCAT COM SRL",
          "shop": "hardware"
        }
      },
      "geometry": {
        "type": "Point",
        "coordinates": [
          26.1367962,
          44.4550229
        ]
      }
    },
    {
      "type": "Feature",
      "properties": {
        "type": "node",
        "id": 1820023041,
        "tags": {
          "name": "S.C. Strial S.R.L.",
          "shop": "hardware"
        }
      },
      "geometry": {
        "type": "Point",
        "coordinates": [
          26.1348711,
          44.4563388
        ]
      }
    },
    {
      "type": "Feature",
      "properties": {
        "type": "node",
        "id": 1820023230,
        "tags": {
          "shop": "convenience"
        }
      },
      "geometry": {
        "type": "Point",
        "coordinates": [
          26.1339886,
          44.45469
        ]
      }
    },
    {
      "type": "Feature",
      "properties": {
        "type": "node",
        "id": 1820023336,
        "tags": {
          "shop": "convenience"
        }
      },
      "geometry": {
        "type": "Point",
        "coordinates": [
          26.1332945,
          44.4558093
        ]
      }
    },
    {
      "type": "Feature",
      "properties": {
        "type": "node",
        "id": 1820023339,
        "tags": {
          "shop": "hairdresser"
        }
      },
      "geometry": {
        "type": "Point",
        "coordinates": [
          26.1333217,
          44.4558489
        ]
      }
    },
    {
      "type": "Feature",
      "properties": {
        "type": "node",
        "id": 1820023441,
        "tags": {
          "addr:city": "Bucure\u0219ti",
          "is_in:city": "Bucure\u0219ti",
          "name": "Magazin Mixt",
          "opening_hours:signed": "no",
          "shop": "convenience",
          "wheelchair": "no"
        }
      },
      "geometry": {
        "type": "Point",
        "coordinates": [
          26.1308528,
          44.4576207
        ]
      }
    },
    {
      "type": "Feature",
      "properties": {
        "type": "node",
        "id": 1820023445,
        "tags": {
          "shop": "convenience"
        }
      },
      "geometry": {
        "type": "Point",
        "coordinates": [
          26.1321511,
          44.4576958
        ]
      }
    },
    {
      "type": "Feature",
      "properties": {
        "type": "node",
        "id": 1820148287,
        "tags": {
          "shop": "convenience"
        }
      },
      "geometry": {
        "type": "Point",
        "coordinates": [
          26.1285515,
          44.459318
        ]
      }
    },
    {
      "type": "Feature",
      "properties": {
        "type": "node",
        "id": 1820148307,
        "tags": {
          "shop": "beverages"
        }
      },
      "geometry": {
        "type": "Point",
        "coordinates": [
          26.1274745,
          44.4595197
        ]
      }
    },
    {
      "type": "Feature",
      "properties": {
        "type": "node",
        "id": 1820148315,
        "tags": {
          "shop": "convenience"
        }
      },
      "geometry": {
        "type": "Point",
        "coordinates": [
          26.1277955,
          44.4596671
        ]
      }
    },
    {
      "type": "Feature",
      "properties": {
        "type": "node",
        "id": 1890565824,
        "tags": {
          "addr:city": "Bucure\u0219ti",
          "addr:housenumber": "133",
          "addr:street": "Calea C\u0103l\u0103ra\u0219ilor",
          "alt_name": "Mega Image HALA TRAIAN",
          "branch": "Hala Traian",
          "brand": "Mega Image",
          "brand:wikidata": "Q6808085",
          "name": "Mega Image",
          "opening_hours": "Mo-Su 07:00-21:00",
          "payment:cash": "yes",
          "payment:credit_cards": "yes",
          "payment:debit_cards": "yes",
          "shop": "supermarket",
          "wheelchair": "yes"
        }
      },
      "geometry": {
        "type": "Point",
        "coordinates": [
          26.1205511,
          44.4333028
        ]
      }
    },
    {
      "type": "Feature",
      "properties": {
        "type": "node",
        "id": 1894230483,
        "tags": {
          "name": "Magazin Alimentar",
          "opening_hours": "Mo-Fr 7:00-21:00;Sa 07:00-18:00;Su 07:00-13:00",
          "shop": "convenience"
        }
      },
      "geometry": {
        "type": "Point",
        "coordinates": [
          26.1205476,
          44.4374791
        ]
      }
    },
    {
      "type": "Feature",
      "properties": {
        "type": "node",
        "id": 1894230486,
        "tags": {
          "shop": "vacant"
        }
      },
      "geometry": {
        "type": "Point",
        "coordinates": [
          26.1200782,
          44.4371874
        ]
      }
    },
    {
      "type": "Feature",
      "properties": {
        "type": "node",
        "id": 1904008750,
        "tags": {
          "name": "Karine Travel",
          "shop": "travel_agency"
        }
      },
      "geometry": {
        "type": "Point",
        "coordinates": [
          26.1244951,
          44.4324459
        ]
      }
    },
    {
      "type": "Feature",
      "properties": {
        "type": "node",
        "id": 1904008751,
        "tags": {
          "addr:city": "Bucure\u0219ti",
          "name": "Trifoi Market",
          "opening_hours": "24/7",
          "shop": "convenience"
        }
      },
      "geometry": {
        "type": "Point",
        "coordinates": [
          26.1254266,
          44.431945
        ]
      }
    },
    {
      "type": "Feature",
      "properties": {
        "type": "node",
        "id": 1910027071,
        "tags": {
          "brand": "La Doi Pa\u0219i",
          "brand:wikidata": "Q18544132",
          "check_date": "2023-09-07",
          "name": "La Doi Pa\u0219i",
          "opening_hours": "Mo-Su 07:00-22:00",
          "operator": "LGL Market",
          "shop": "convenience",
          "wheelchair": "limited"
        }
      },
      "geometry": {
        "type": "Point",
        "coordinates": [
          26.1373045,
          44.4419719
        ]
      }
    },
    {
      "type": "Feature",
      "properties": {
        "type": "node",
        "id": 1954841493,
        "tags": {
          "shop": "vacant"
        }
      },
      "geometry": {
        "type": "Point",
        "coordinates": [
          26.1205114,
          44.4401532
        ]
      }
    },
    {
      "type": "Feature",
      "properties": {
        "type": "node",
        "id": 1982931900,
        "tags": {
          "name": "Max Stil",
          "shop": "beauty"
        }
      },
      "geometry": {
        "type": "Point",
        "coordinates": [
          26.1271817,
          44.4597673
        ]
      }
    },
    {
      "type": "Feature",
      "properties": {
        "type": "node",
        "id": 1982932038,
        "tags": {
          "shop": "convenience"
        }
      },
      "geometry": {
        "type": "Point",
        "coordinates": [
          26.1275902,
          44.4593575
        ]
      }
    },
    {
      "type": "Feature",
      "properties": {
        "type": "node",
        "id": 1982932072,
        "tags": {
          "shop": "greengrocer"
        }
      },
      "geometry": {
        "type": "Point",
        "coordinates": [
          26.1273206,
          44.4593755
        ]
      }
    },
    {
      "type": "Feature",
      "properties": {
        "type": "node",
        "id": 1982932080,
        "tags": {
          "shop": "butcher"
        }
      },
      "geometry": {
        "type": "Point",
        "coordinates": [
          26.1272182,
          44.4595934
        ]
      }
    },
    {
      "type": "Feature",
      "properties": {
        "type": "node",
        "id": 1982932092,
        "tags": {
          "shop": "convenience"
        }
      },
      "geometry": {
        "type": "Point",
        "coordinates": [
          26.1271902,
          44.4597267
        ]
      }
    },
    {
      "type": "Feature",
      "properties": {
        "type": "node",
        "id": 2133554462,
        "tags": {
          "name": "Lucica",
          "shop": "convenience"
        }
      },
      "geometry": {
        "type": "Point",
        "coordinates": [
          26.1472383,
          44.452969
        ]
      }
    },
    {
      "type": "Feature",
      "properties": {
        "type": "node",
        "id": 2133561244,
        "tags": {
          "is_in:city": "Bucure\u0219ti",
          "name": "P\u00e2ine",
          "shop": "bakery"
        }
      },
      "geometry": {
        "type": "Point",
        "coordinates": [
          26.1466227,
          44.4514596
        ]
      }
    },
    {
      "type": "Feature",
      "properties": {
        "type": "node",
        "id": 2282023199,
        "tags": {
          "addr:city": "Bucure\u0219ti",
          "addr:housenumber": "1-3",
          "addr:postcode": "021591",
          "addr:street": "\u0218oseaua Pantelimon",
          "name": "Magazin piese auto / Mecanica Fin\u0103",
          "shop": "car_repair"
        }
      },
      "geometry": {
        "type": "Point",
        "coordinates": [
          26.1338033,
          44.448625
        ]
      }
    },
    {
      "type": "Feature",
      "properties": {
        "type": "node",
        "id": 2365052577,
        "tags": {
          "name": "Mini Market Non-Stop",
          "opening_hours": "24/7",
          "shop": "convenience",
          "source": "survey"
        }
      },
      "geometry": {
        "type": "Point",
        "coordinates": [
          26.1434168,
          44.4558601
        ]
      }
    },
    {
      "type": "Feature",
      "properties": {
        "type": "node",
        "id": 2365057741,
        "tags": {
          "addr:street": "Strada Sighet",
          "is_in:city": "Bucure\u0219ti",
          "name": "Nicola",
          "operator": "Nicola Comimex SRL",
          "shop": "convenience",
          "source": "survey"
        }
      },
      "geometry": {
        "type": "Point",
        "coordinates": [
          26.1406768,
          44.456653
        ]
      }
    },
    {
      "type": "Feature",
      "properties": {
        "type": "node",
        "id": 2383692390,
        "tags": {
          "addr:city": "Bucure\u0219ti",
          "addr:housenumber": "254",
          "addr:postcode": "024046",
          "addr:postcode:source": "Date de la Po\u0219ta Rom\u00e2n\u0103, publicate sub Licen\u021ba pentru Guvernare Deschis\u0103 v1.0 la http://date.gov.ro/organization/posta-romana",
          "addr:street": "Strada Traian",
          "name": "Dessiree Massage",
          "phone": "+40732.545.457",
          "shop": "massage",
          "website": "https://dessireemasaj.ro/"
        }
      },
      "geometry": {
        "type": "Point",
        "coordinates": [
          26.1196919,
          44.4436208
        ]
      }
    },
    {
      "type": "Feature",
      "properties": {
        "type": "node",
        "id": 2405677714,
        "tags": {
          "check_date:opening_hours": "2022-04-25",
          "name": "Flor\u0103rie",
          "opening_hours:signed": "no",
          "shop": "florist",
          "wheelchair": "yes"
        }
      },
      "geometry": {
        "type": "Point",
        "coordinates": [
          26.1597872,
          44.4350593
        ]
      }
    },
    {
      "type": "Feature",
      "properties": {
        "type": "node",
        "id": 2425547737,
        "tags": {
          "is_in:city": "Bucure\u0219ti",
          "name": "Mini Market La Col\u021b",
          "shop": "convenience",
          "source": "survey"
        }
      },
      "geometry": {
        "type": "Point",
        "coordinates": [
          26.1200986,
          44.4449821
        ]
      }
    },
    {
      "type": "Feature",
      "properties": {
        "type": "node",
        "id": 2426379922,
        "tags": {
          "name": "Kiosk",
          "opening_hours": "24/7",
          "shop": "convenience",
          "source": "survey"
        }
      },
      "geometry": {
        "type": "Point",
        "coordinates": [
          26.1598609,
          44.4358048
        ]
      }
    },
    {
      "type": "Feature",
      "properties": {
        "type": "node",
        "id": 2432578962,
        "tags": {
          "name": "POGO Service Auto",
          "shop": "car_repair",
          "source": "survey"
        }
      },
      "geometry": {
        "type": "Point",
        "coordinates": [
          26.1318132,
          44.4372563
        ]
      }
    },
    {
      "type": "Feature",
      "properties": {
        "type": "node",
        "id": 2432633073,
        "tags": {
          "name": "Magazinul de la col\u021b Non-Stop",
          "opening_hours": "24/7",
          "shop": "convenience",
          "source": "survey",
          "wheelchair": "limited"
        }
      },
      "geometry": {
        "type": "Point",
        "coordinates": [
          26.1322879,
          44.4372779
        ]
      }
    },
    {
      "type": "Feature",
      "properties": {
        "type": "node",
        "id": 2432699732,
        "tags": {
          "name": "Mini Market Non-Stop",
          "opening_hours": "24/7",
          "shop": "convenience",
          "source": "survey",
          "wheelchair": "no"
        }
      },
      "geometry": {
        "type": "Point",
        "coordinates": [
          26.1322207,
          44.4375188
        ]
      }
    },
    {
      "type": "Feature",
      "properties": {
        "type": "node",
        "id": 2434528588,
        "tags": {
          "name": "Frizerie, coafor",
          "shop": "hairdresser"
        }
      },
      "geometry": {
        "type": "Point",
        "coordinates": [
          26.1197388,
          44.4436379
        ]
      }
    },
    {
      "type": "Feature",
      "properties": {
        "type": "node",
        "id": 2434544472,
        "tags": {
          "name": "Non-Stop La Andreea",
          "opening_hours": "24/7",
          "shop": "convenience",
          "source": "survey"
        }
      },
      "geometry": {
        "type": "Point",
        "coordinates": [
          26.1196946,
          44.4437262
        ]
      }
    },
    {
      "type": "Feature",
      "properties": {
        "type": "node",
        "id": 2434544473,
        "tags": {
          "name": "Flor\u0103rie",
          "opening_hours:signed": "no",
          "shop": "florist",
          "source": "survey",
          "wheelchair": "yes"
        }
      },
      "geometry": {
        "type": "Point",
        "coordinates": [
          26.1196921,
          44.4437798
        ]
      }
    },
    {
      "type": "Feature",
      "properties": {
        "type": "node",
        "id": 2437223162,
        "tags": {
          "is_in:city": "Bucure\u0219ti",
          "name": "Magazin Alimentar",
          "shop": "convenience",
          "source": "survey"
        }
      },
      "geometry": {
        "type": "Point",
        "coordinates": [
          26.1390282,
          44.4567137
        ]
      }
    },
    {
      "type": "Feature",
      "properties": {
        "type": "node",
        "id": 2437226512,
        "tags": {
          "is_in:city": "Bucure\u0219ti",
          "name": "Magazin Alimentar",
          "shop": "convenience",
          "source": "survey"
        }
      },
      "geometry": {
        "type": "Point",
        "coordinates": [
          26.1382689,
          44.4580449
        ]
      }
    },
    {
      "type": "Feature",
      "properties": {
        "type": "node",
        "id": 2437227325,
        "tags": {
          "addr:city": "Bucure\u0219ti",
          "addr:housenumber": "177",
          "addr:street": "Strada Doamna Ghica",
          "alt_name": "Mega Image Doamna Ghica 2",
          "is_in:city": "Bucure\u0219ti",
          "name": "Mega Image",
          "opening_hours": "Mo-Su 07:00-22:00",
          "shop": "supermarket",
          "source": "survey"
        }
      },
      "geometry": {
        "type": "Point",
        "coordinates": [
          26.1379259,
          44.4584605
        ]
      }
    },
    {
      "type": "Feature",
      "properties": {
        "type": "node",
        "id": 2437229378,
        "tags": {
          "is_in:city": "Bucure\u0219ti",
          "name": "Vulcanizare Auto",
          "shop": "car_repair",
          "source": "survey"
        }
      },
      "geometry": {
        "type": "Point",
        "coordinates": [
          26.1420035,
          44.4562072
        ]
      }
    },
    {
      "type": "Feature",
      "properties": {
        "type": "node",
        "id": 2437651077,
        "tags": {
          "name": "Magazin Non-Stop",
          "opening_hours": "24/7",
          "shop": "kiosk",
          "source": "survey"
        }
      },
      "geometry": {
        "type": "Point",
        "coordinates": [
          26.143609,
          44.4468315
        ]
      }
    },
    {
      "type": "Feature",
      "properties": {
        "type": "node",
        "id": 2437666828,
        "tags": {
          "is_in:city": "Bucure\u0219ti",
          "name": "Magazin Mixt",
          "shop": "convenience",
          "source": "survey"
        }
      },
      "geometry": {
        "type": "Point",
        "coordinates": [
          26.1480557,
          44.4498293
        ]
      }
    },
    {
      "type": "Feature",
      "properties": {
        "type": "node",
        "id": 2437672249,
        "tags": {
          "check_date": "2023-12-04",
          "is_in:city": "Bucure\u0219ti",
          "name": "Magazin Non-Stop",
          "opening_hours": "24/7",
          "shop": "convenience",
          "source": "survey"
        }
      },
      "geometry": {
        "type": "Point",
        "coordinates": [
          26.1464192,
          44.4514498
        ]
      }
    },
    {
      "type": "Feature",
      "properties": {
        "type": "node",
        "id": 2437676795,
        "tags": {
          "name": "Magazin Alimentar",
          "shop": "convenience",
          "source": "survey"
        }
      },
      "geometry": {
        "type": "Point",
        "coordinates": [
          26.1433993,
          44.4544813
        ]
      }
    },
    {
      "type": "Feature",
      "properties": {
        "type": "node",
        "id": 2437678226,
        "tags": {
          "is_in:city": "Bucure\u0219ti",
          "name": "Vulcanizare Auto",
          "shop": "car_repair",
          "source": "survey"
        }
      },
      "geometry": {
        "type": "Point",
        "coordinates": [
          26.1371217,
          44.4590747
        ]
      }
    },
    {
      "type": "Feature",
      "properties": {
        "type": "node",
        "id": 2437678821,
        "tags": {
          "shop": "beauty"
        }
      },
      "geometry": {
        "type": "Point",
        "coordinates": [
          26.1367907,
          44.458782
        ]
      }
    },
    {
      "type": "Feature",
      "properties": {
        "type": "node",
        "id": 2441340211,
        "tags": {
          "addr:housenumber": "51",
          "addr:street": "Strada \u0218tiucii",
          "name": "Magazin",
          "opening_hours:signed": "no",
          "shop": "convenience",
          "source": "survey"
        }
      },
      "geometry": {
        "type": "Point",
        "coordinates": [
          26.1591959,
          44.4498953
        ]
      }
    },
    {
      "type": "Feature",
      "properties": {
        "type": "node",
        "id": 2442433930,
        "tags": {
          "name": "Floraria Provence",
          "opening_hours": "Mo-Fr 08:00-18:00; Sa 09:00-14:00",
          "shop": "florist",
          "wheelchair": "no"
        }
      },
      "geometry": {
        "type": "Point",
        "coordinates": [
          26.1203623,
          44.4392135
        ]
      }
    },
    {
      "type": "Feature",
      "properties": {
        "type": "node",
        "id": 2442764283,
        "tags": {
          "check_date": "2023-04-17",
          "name": "Magazin Non-Stop",
          "opening_hours": "24/7",
          "shop": "convenience",
          "source": "survey",
          "wheelchair": "limited"
        }
      },
      "geometry": {
        "type": "Point",
        "coordinates": [
          26.1374224,
          44.435715
        ]
      }
    },
    {
      "type": "Feature",
      "properties": {
        "type": "node",
        "id": 2442932644,
        "tags": {
          "name": "Vulcanizare Auto",
          "opening_hours": "Mo-Fr 08:00-17:00; Sa 09:00-14:00",
          "shop": "car_repair",
          "wheelchair": "limited"
        }
      },
      "geometry": {
        "type": "Point",
        "coordinates": [
          26.1203543,
          44.4416779
        ]
      }
    },
    {
      "type": "Feature",
      "properties": {
        "type": "node",
        "id": 2442932927,
        "tags": {
          "name": "Service Auto, Mecanica",
          "opening_hours": "Mo-Fr 08:00-13:00,14:00-17:00",
          "shop": "car_repair",
          "wheelchair": "limited"
        }
      },
      "geometry": {
        "type": "Point",
        "coordinates": [
          26.1200002,
          44.4410958
        ]
      }
    },
    {
      "type": "Feature",
      "properties": {
        "type": "node",
        "id": 2444955680,
        "tags": {
          "addr:city": "Bucure\u0219ti",
          "name": "Magazin Non-Stop",
          "shop": "convenience",
          "source": "survey"
        }
      },
      "geometry": {
        "type": "Point",
        "coordinates": [
          26.1246651,
          44.4521519
        ]
      }
    },
    {
      "type": "Feature",
      "properties": {
        "type": "node",
        "id": 2446403523,
        "tags": {
          "check_date": "2023-04-15",
          "shop": "kiosk"
        }
      },
      "geometry": {
        "type": "Point",
        "coordinates": [
          26.1546367,
          44.432823
        ]
      }
    },
    {
      "type": "Feature",
      "properties": {
        "type": "node",
        "id": 2446403525,
        "tags": {
          "check_date": "2023-04-15",
          "female": "yes",
          "male": "no",
          "name:signed": "no",
          "shop": "hairdresser"
        }
      },
      "geometry": {
        "type": "Point",
        "coordinates": [
          26.1545911,
          44.4328115
        ]
      }
    },
    {
      "type": "Feature",
      "properties": {
        "type": "node",
        "id": 2446403526,
        "tags": {
          "check_date": "2023-04-15",
          "name": "Brutaria Merloni",
          "opening_hours": "Mo-Fr 06:00-20:00; Sa 07:00-16:00; Su 07:00-15:00",
          "shop": "bakery",
          "wheelchair": "yes"
        }
      },
      "geometry": {
        "type": "Point",
        "coordinates": [
          26.1547574,
          44.4329149
        ]
      }
    },
    {
      "type": "Feature",
      "properties": {
        "type": "node",
        "id": 2447114988,
        "tags": {
          "name": "Materiale de Construc\u021bii",
          "shop": "doityourself",
          "source": "survey"
        }
      },
      "geometry": {
        "type": "Point",
        "coordinates": [
          26.1435583,
          44.4558786
        ]
      }
    },
    {
      "type": "Feature",
      "properties": {
        "type": "node",
        "id": 2448080584,
        "tags": {
          "name": "Vatra Alimentara",
          "opening_hours:signed": "no",
          "shop": "convenience",
          "wheelchair": "yes"
        }
      },
      "geometry": {
        "type": "Point",
        "coordinates": [
          26.138613,
          44.4379971
        ]
      }
    },
    {
      "type": "Feature",
      "properties": {
        "type": "node",
        "id": 2448563475,
        "tags": {
          "check_date": "2025-11-02",
          "name": "Davi Activ Market",
          "opening_hours": "24/7",
          "shop": "convenience",
          "source": "survey",
          "wheelchair": "limited"
        }
      },
      "geometry": {
        "type": "Point",
        "coordinates": [
          26.12045,
          44.4407333
        ]
      }
    },
    {
      "type": "Feature",
      "properties": {
        "type": "node",
        "id": 2451777772,
        "tags": {
          "name": "Service Auto",
          "shop": "car_repair",
          "source": "survey"
        }
      },
      "geometry": {
        "type": "Point",
        "coordinates": [
          26.141912,
          44.453052
        ]
      }
    },
    {
      "type": "Feature",
      "properties": {
        "type": "node",
        "id": 2451794445,
        "tags": {
          "name": "Vulcanizare Auto",
          "shop": "car_repair",
          "source": "survey"
        }
      },
      "geometry": {
        "type": "Point",
        "coordinates": [
          26.1421151,
          44.4535562
        ]
      }
    },
    {
      "type": "Feature",
      "properties": {
        "type": "node",
        "id": 2453984584,
        "tags": {
          "name": "Fabrica de Pr\u0103jituri",
          "shop": "confectionery",
          "source": "survey"
        }
      },
      "geometry": {
        "type": "Point",
        "coordinates": [
          26.1197905,
          44.4438469
        ]
      }
    },
    {
      "type": "Feature",
      "properties": {
        "type": "node",
        "id": 2454181645,
        "tags": {
          "addr:city": "Bucure\u0219ti",
          "addr:housenumber": "118",
          "addr:street": "Bulevardul Ferdinand I",
          "alt_name": "Market Bucuresti Ferdinand",
          "brand": "Carrefour Market",
          "brand:wikidata": "Q2689639",
          "name": "Carrefour Market",
          "opening_hours": "Mo-Su 07:00-22:00",
          "shop": "supermarket",
          "source": "survey",
          "wheelchair": "yes"
        }
      },
      "geometry": {
        "type": "Point",
        "coordinates": [
          26.1304834,
          44.4441604
        ]
      }
    },
    {
      "type": "Feature",
      "properties": {
        "type": "node",
        "id": 2454186794,
        "tags": {
          "check_date:opening_hours": "2023-05-20",
          "name": "Magazin Mixt",
          "opening_hours:signed": "no",
          "shop": "kiosk",
          "source": "survey"
        }
      },
      "geometry": {
        "type": "Point",
        "coordinates": [
          26.1289816,
          44.4434513
        ]
      }
    },
    {
      "type": "Feature",
      "properties": {
        "type": "node",
        "id": 2454188937,
        "tags": {
          "name": "Magazin Non-Stop",
          "opening_hours": "24/7",
          "shop": "kiosk",
          "source": "survey"
        }
      },
      "geometry": {
        "type": "Point",
        "coordinates": [
          26.1284309,
          44.4433294
        ]
      }
    },
    {
      "type": "Feature",
      "properties": {
        "type": "node",
        "id": 2454190002,
        "tags": {
          "check_date": "2022-05-07",
          "shop": "vacant"
        }
      },
      "geometry": {
        "type": "Point",
        "coordinates": [
          26.1213795,
          44.440178
        ]
      }
    },
    {
      "type": "Feature",
      "properties": {
        "type": "node",
        "id": 2456560968,
        "tags": {
          "addr:city": "Bucure\u0219ti",
          "addr:housenumber": "98-110",
          "addr:postcode": "021642",
          "addr:street": "\u0218oseaua Pantelimon",
          "check_date:opening_hours": "2024-07-04",
          "is_in:city": "Bucure\u0219ti",
          "name": "Marius Supermarket",
          "opening_hours": "Mo-Su 07:00-21:00",
          "operator": "M.G Nicom Serv Impex",
          "shop": "supermarket",
          "source": "survey",
          "wheelchair": "yes"
        }
      },
      "geometry": {
        "type": "Point",
        "coordinates": [
          26.1434558,
          44.4440631
        ]
      }
    },
    {
      "type": "Feature",
      "properties": {
        "type": "node",
        "id": 2456564497,
        "tags": {
          "check_date:opening_hours": "2024-12-20",
          "is_in:city": "Bucure\u0219ti",
          "name": "Flor\u0103rie",
          "opening_hours": "Mo-Su 06:00-22:00",
          "shop": "florist",
          "source": "survey",
          "wheelchair": "limited"
        }
      },
      "geometry": {
        "type": "Point",
        "coordinates": [
          26.1440477,
          44.4440621
        ]
      }
    },
    {
      "type": "Feature",
      "properties": {
        "type": "node",
        "id": 2460522080,
        "tags": {
          "is_in:city": "Bucure\u0219ti",
          "name": "Mini Market Non-Stop",
          "opening_hours": "24/7",
          "shop": "convenience",
          "source": "survey",
          "wheelchair": "limited"
        }
      },
      "geometry": {
        "type": "Point",
        "coordinates": [
          26.1313533,
          44.4582929
        ]
      }
    },
    {
      "type": "Feature",
      "properties": {
        "type": "node",
        "id": 2460684185,
        "tags": {
          "check_date": "2025-10-08",
          "name": "Magazin Mixt",
          "opening_hours": "24/7",
          "shop": "convenience",
          "source": "survey",
          "wheelchair": "yes"
        }
      },
      "geometry": {
        "type": "Point",
        "coordinates": [
          26.1406503,
          44.4486838
        ]
      }
    },
    {
      "type": "Feature",
      "properties": {
        "type": "node",
        "id": 2465727501,
        "tags": {
          "name": "OX Market Non-Stop",
          "opening_hours": "24/7",
          "shop": "convenience",
          "source": "survey"
        }
      },
      "geometry": {
        "type": "Point",
        "coordinates": [
          26.1215292,
          44.4456435
        ]
      }
    },
    {
      "type": "Feature",
      "properties": {
        "type": "node",
        "id": 2470519066,
        "tags": {
          "addr:city": "Bucure\u0219ti",
          "addr:housenumber": "249",
          "addr:street": "Calea Mo\u0219ilor",
          "alt_name": "Mega Image Mo\u0219ilor F\u0103inari",
          "brand": "Mega Image",
          "brand:wikidata": "Q6808085",
          "check_date": "2023-09-25",
          "level": "0",
          "name": "Mega Image",
          "opening_hours": "Mo-Su 07:00-23:00",
          "payment:mastercard": "yes",
          "payment:visa": "yes",
          "shop": "supermarket",
          "source": "survey",
          "wheelchair": "yes"
        }
      },
      "geometry": {
        "type": "Point",
        "coordinates": [
          26.1224935,
          44.447269
        ]
      }
    },
    {
      "type": "Feature",
      "properties": {
        "type": "node",
        "id": 2470519067,
        "tags": {
          "check_date": "2022-05-05",
          "shop": "vacant"
        }
      },
      "geometry": {
        "type": "Point",
        "coordinates": [
          26.1222853,
          44.4470452
        ]
      }
    },
    {
      "type": "Feature",
      "properties": {
        "type": "node",
        "id": 2477486859,
        "tags": {
          "is_in:city": "Bucure\u0219ti",
          "name": "Magazin Mixt",
          "shop": "convenience",
          "source": "survey"
        }
      },
      "geometry": {
        "type": "Point",
        "coordinates": [
          26.1366096,
          44.4594485
        ]
      }
    },
    {
      "type": "Feature",
      "properties": {
        "type": "node",
        "id": 2477486860,
        "tags": {
          "is_in:city": "Bucure\u0219ti",
          "name": "Socom Service Auto",
          "phone": "021.252.79.01",
          "shop": "car_repair"
        }
      },
      "geometry": {
        "type": "Point",
        "coordinates": [
          26.1452462,
          44.4468908
        ]
      }
    },
    {
      "type": "Feature",
      "properties": {
        "type": "node",
        "id": 2477486864,
        "tags": {
          "is_in:city": "Bucure\u0219ti",
          "name": "Vulcanizare Auto",
          "shop": "car_repair"
        }
      },
      "geometry": {
        "type": "Point",
        "coordinates": [
          26.1447763,
          44.4471082
        ]
      }
    },
    {
      "type": "Feature",
      "properties": {
        "type": "node",
        "id": 2477636293,
        "tags": {
          "addr:city": "Bucure\u0219ti",
          "addr:housenumber": "249",
          "addr:postcode": "021651",
          "addr:street": "\u0218oseaua Pantelimon",
          "alt_name": "Market Bucuresti Delfinului",
          "brand": "Carrefour Market",
          "brand:wikidata": "Q2689639",
          "brand:wikipedia": "fr:Carrefour Market",
          "is_in:city": "Bucure\u0219ti",
          "name": "Carrefour Market",
          "opening_hours": "Mo-Su 07:00-21:00",
          "shop": "supermarket",
          "source": "survey",
          "wheelchair": "yes"
        }
      },
      "geometry": {
        "type": "Point",
        "coordinates": [
          26.1586341,
          44.4432259
        ]
      }
    },
    {
      "type": "Feature",
      "properties": {
        "type": "node",
        "id": 2477636297,
        "tags": {
          "is_in:city": "Bucure\u0219ti",
          "name": "Minimarker",
          "opening_hours:signed": "no",
          "shop": "convenience",
          "wheelchair": "limited"
        }
      },
      "geometry": {
        "type": "Point",
        "coordinates": [
          26.1503488,
          44.4437157
        ]
      }
    },
    {
      "type": "Feature",
      "properties": {
        "type": "node",
        "id": 2479033101,
        "tags": {
          "name": "Mini Market Non-Stop",
          "opening_hours": "24/7",
          "shop": "convenience",
          "source": "survey"
        }
      },
      "geometry": {
        "type": "Point",
        "coordinates": [
          26.1451597,
          44.4326184
        ]
      }
    },
    {
      "type": "Feature",
      "properties": {
        "type": "node",
        "id": 2479038612,
        "tags": {
          "addr:city": "Bucure\u0219ti",
          "addr:housenumber": "147",
          "addr:street": "Calea C\u0103l\u0103ra\u0219ilor",
          "is_in:city": "Bucure\u0219ti",
          "name": "Materiale de Construc\u021bii",
          "opening_hours": "Mo-Fr 08:00-18:00; Sa 08:00-14:00",
          "operator": "Some\u0219 SRL",
          "payment:cash": "yes",
          "payment:debit_cards": "yes",
          "payment:mastercard": "yes",
          "payment:visa": "yes",
          "shop": "doityourself",
          "source": "survey"
        }
      },
      "geometry": {
        "type": "Point",
        "coordinates": [
          26.1220934,
          44.4329616
        ]
      }
    },
    {
      "type": "Feature",
      "properties": {
        "type": "node",
        "id": 2484995409,
        "tags": {
          "name": "Piese Auto",
          "opening_hours": "Mo-Fr 08:00-18:00; Sa 08:00-14:00",
          "shop": "car_parts",
          "source": "survey",
          "wheelchair": "no"
        }
      },
      "geometry": {
        "type": "Point",
        "coordinates": [
          26.1323423,
          44.4370408
        ]
      }
    },
    {
      "type": "Feature",
      "properties": {
        "type": "node",
        "id": 2491411267,
        "tags": {
          "addr:city": "Bucure\u0219ti",
          "name": "Service Auto",
          "shop": "car_repair",
          "source": "survey"
        }
      },
      "geometry": {
        "type": "Point",
        "coordinates": [
          26.1234468,
          44.4542397
        ]
      }
    },
    {
      "type": "Feature",
      "properties": {
        "type": "node",
        "id": 2491981581,
        "tags": {
          "name": "Mini Market",
          "shop": "convenience",
          "source": "survey"
        }
      },
      "geometry": {
        "type": "Point",
        "coordinates": [
          26.1381735,
          44.4549777
        ]
      }
    },
    {
      "type": "Feature",
      "properties": {
        "type": "node",
        "id": 2492978326,
        "tags": {
          "addr:city": "Bucure\u0219ti",
          "addr:housenumber": "110",
          "addr:street": "Bulevardul Basarabia",
          "alt_name": "Shop&Go Basarabia 110",
          "brand": "Shop&Go",
          "brand:wikidata": "Q114644174",
          "name": "Shop&Go",
          "opening_hours": "Mo-Su 07:00-22:00",
          "operator": "Mega Image",
          "operator:wikidata": "Q6808085",
          "shop": "convenience",
          "wheelchair": "no"
        }
      },
      "geometry": {
        "type": "Point",
        "coordinates": [
          26.156265,
          44.4337494
        ]
      }
    },
    {
      "type": "Feature",
      "properties": {
        "type": "node",
        "id": 2495355053,
        "tags": {
          "name": "Ana Pan",
          "opening_hours": "Mo-Fr 07:30-20:00; Sa 07:30-17:00; Su 09:00-13:00",
          "shop": "confectionery",
          "source": "survey",
          "wheelchair": "no"
        }
      },
      "geometry": {
        "type": "Point",
        "coordinates": [
          26.1200617,
          44.4434746
        ]
      }
    },
    {
      "type": "Feature",
      "properties": {
        "type": "node",
        "id": 2506855902,
        "tags": {
          "addr:postcode": "021593",
          "brand": "Shop&Go",
          "brand:wikidata": "Q114644174",
          "check_date:opening_hours": "2025-03-05",
          "name": "Shop&Go",
          "opening_hours": "Mo-Su 07:00-21:00",
          "operator": "Mega Image",
          "operator:wikidata": "Q6808085",
          "shop": "convenience",
          "wheelchair": "yes"
        }
      },
      "geometry": {
        "type": "Point",
        "coordinates": [
          26.1369355,
          44.4451799
        ]
      }
    },
    {
      "type": "Feature",
      "properties": {
        "type": "node",
        "id": 2526777109,
        "tags": {
          "addr:city": "Bucure\u0219ti",
          "addr:housenumber": "1",
          "addr:postcode": "021151",
          "addr:street": "\u0218oseaua Colentina",
          "alt_name": "Mega Image Obor 2",
          "brand": "Mega Image",
          "brand:wikidata": "Q6808085",
          "brand:wikipedia": "en:Mega Image",
          "check_date": "2025-04-25",
          "name": "Mega Image",
          "opening_hours": "Mo-Su 08:00-22:00",
          "shop": "supermarket",
          "wheelchair": "limited"
        }
      },
      "geometry": {
        "type": "Point",
        "coordinates": [
          26.1246284,
          44.4506319
        ]
      }
    },
    {
      "type": "Feature",
      "properties": {
        "type": "node",
        "id": 2554146295,
        "tags": {
          "addr:city": "Bucure\u0219ti",
          "addr:housenumber": "97",
          "addr:street": "Bulevardul Ferdinand I",
          "alt_name": "Mega Image Ferdinand",
          "brand": "Shop&Go",
          "brand:wikidata": "Q114644174",
          "name": "Shop&Go",
          "opening_hours": "Mo-Su 07:00-22:00",
          "operator": "Mega Image",
          "operator:wikidata": "Q6808085",
          "shop": "convenience",
          "source": "survey",
          "wheelchair": "yes"
        }
      },
      "geometry": {
        "type": "Point",
        "coordinates": [
          26.1295596,
          44.4444668
        ]
      }
    },
    {
      "type": "Feature",
      "properties": {
        "type": "node",
        "id": 2578727709,
        "tags": {
          "check_date": "2025-04-05",
          "name": "Magazin Non-Stop",
          "opening_hours": "24/7",
          "shop": "kiosk",
          "source": "survey",
          "wheelchair": "limited"
        }
      },
      "geometry": {
        "type": "Point",
        "coordinates": [
          26.1199845,
          44.4592024
        ]
      }
    },
    {
      "type": "Feature",
      "properties": {
        "type": "node",
        "id": 2579615776,
        "tags": {
          "opening_hours:signed": "no",
          "shop": "convenience",
          "wheelchair": "limited"
        }
      },
      "geometry": {
        "type": "Point",
        "coordinates": [
          26.1293842,
          44.4452206
        ]
      }
    },
    {
      "type": "Feature",
      "properties": {
        "type": "node",
        "id": 2581813522,
        "tags": {
          "check_date": "2024-12-25",
          "name": "Vulcanizare Auto Non-Stop",
          "opening_hours": "24/7",
          "shop": "car_repair",
          "source": "survey"
        }
      },
      "geometry": {
        "type": "Point",
        "coordinates": [
          26.1262009,
          44.4457376
        ]
      }
    },
    {
      "type": "Feature",
      "properties": {
        "type": "node",
        "id": 2582580025,
        "tags": {
          "name": "Piese Auto",
          "shop": "car_parts",
          "source": "survey"
        }
      },
      "geometry": {
        "type": "Point",
        "coordinates": [
          26.1412911,
          44.4563801
        ]
      }
    },
    {
      "type": "Feature",
      "properties": {
        "type": "node",
        "id": 2582581922,
        "tags": {
          "addr:city": "Bucure\u0219ti",
          "addr:housenumber": "3A",
          "addr:postcode": "021152",
          "addr:postcode:source": "Date de la Po\u0219ta Rom\u00e2n\u0103, publicate sub Licen\u021ba pentru Guvernare Deschis\u0103 v1.0 la http://date.gov.ro/organization/posta-romana",
          "addr:street": "\u0218oseaua Colentina",
          "alt_name": "Mega Image Colentina Obor",
          "brand": "Mega Image",
          "brand:wikidata": "Q6808085",
          "brand:wikipedia": "en:Mega Image",
          "check_date": "2025-02-26",
          "name": "Mega Image",
          "opening_hours": "Mo-Su 07:00-22:00",
          "operator": "Mega Image",
          "shop": "supermarket",
          "source": "survey",
          "wheelchair": "yes"
        }
      },
      "geometry": {
        "type": "Point",
        "coordinates": [
          26.1259781,
          44.452075
        ]
      }
    },
    {
      "type": "Feature",
      "properties": {
        "type": "node",
        "id": 2588061088,
        "tags": {
          "name": "Mini Market",
          "opening_hours": "Mo-Sa 08:00-21:00; Su 09:00-21:00",
          "shop": "convenience",
          "source": "survey",
          "wheelchair": "no"
        }
      },
      "geometry": {
        "type": "Point",
        "coordinates": [
          26.1346504,
          44.4437096
        ]
      }
    },
    {
      "type": "Feature",
      "properties": {
        "type": "node",
        "id": 2591969807,
        "tags": {
          "shop": "vacant",
          "source": "survey"
        }
      },
      "geometry": {
        "type": "Point",
        "coordinates": [
          26.1225616,
          44.4475436
        ]
      }
    },
    {
      "type": "Feature",
      "properties": {
        "type": "node",
        "id": 2634862550,
        "tags": {
          "addr:city": "Bucure\u0219ti",
          "addr:housenumber": "215",
          "addr:postcode": "021323",
          "addr:street": "\u0218oseaua Mihai Bravu",
          "description": "Agen\u021bie de turism ce ofera servicii complete pentru c\u0103l\u0103torii: bilete de avion, caz\u0103ri \u00een Rom\u00e2nia, caz\u0103ri \u00een str\u0103in\u0103tate, croaziere, sejururi, circuite, transferuri, bilete de tren, rent a car, asigur\u0103ri de c\u0103l\u0103torie, evenimente, programe incentive.",
          "name": "Accent Travel & Events",
          "opening_hours": "Mo-Fr 09:00-18:00",
          "phone": "+40 21 314 19 80",
          "shop": "travel_agency",
          "website": "https://www.accenttravel.ro/"
        }
      },
      "geometry": {
        "type": "Point",
        "coordinates": [
          26.1386903,
          44.4330794
        ]
      }
    },
    {
      "type": "Feature",
      "properties": {
        "type": "node",
        "id": 2637394176,
        "tags": {
          "shop": "hearing_aids"
        }
      },
      "geometry": {
        "type": "Point",
        "coordinates": [
          26.1206289,
          44.445366
        ]
      }
    },
    {
      "type": "Feature",
      "properties": {
        "type": "node",
        "id": 2637394272,
        "tags": {
          "brand": "Shop&Go",
          "brand:wikidata": "Q114644174",
          "check_date:opening_hours": "2025-10-04",
          "name": "Shop&Go",
          "opening_hours": "Mo-Su 07:00-22:00",
          "operator": "Mega Image",
          "operator:wikidata": "Q6808085",
          "shop": "convenience"
        }
      },
      "geometry": {
        "type": "Point",
        "coordinates": [
          26.1328111,
          44.4408638
        ]
      }
    },
    {
      "type": "Feature",
      "properties": {
        "type": "node",
        "id": 2637394283,
        "tags": {
          "addr:city": "Bucure\u0219ti",
          "addr:street": "\u0218oseaua Pantelimon",
          "cuisine": "regional",
          "name": "Vlaicu",
          "shop": "bakery",
          "wheelchair": "limited"
        }
      },
      "geometry": {
        "type": "Point",
        "coordinates": [
          26.1651658,
          44.4428676
        ]
      }
    },
    {
      "type": "Feature",
      "properties": {
        "type": "node",
        "id": 2637394285,
        "tags": {
          "addr:city": "Bucure\u0219ti",
          "addr:street": "\u0218oseaua \u0218tefan cel Mare",
          "check_date": "2022-05-17",
          "shop": "vacant"
        }
      },
      "geometry": {
        "type": "Point",
        "coordinates": [
          26.1208751,
          44.4514364
        ]
      }
    },
    {
      "type": "Feature",
      "properties": {
        "type": "node",
        "id": 2637394286,
        "tags": {
          "addr:city": "Bucure\u0219ti",
          "addr:housenumber": "132",
          "addr:postcode": "021336",
          "addr:postcode:source": "Date de la Po\u0219ta Rom\u00e2n\u0103, publicate sub Licen\u021ba pentru Guvernare Deschis\u0103 v1.0 la http://date.gov.ro/organization/posta-romana",
          "addr:street": "\u0218oseaua Mihai Bravu",
          "alt_name": "Shop&Go Mega Image",
          "brand": "Shop&Go",
          "brand:wikidata": "Q114644174",
          "check_date:opening_hours": "2025-06-05",
          "level": "0",
          "name": "Shop&Go",
          "opening_hours": "Mo-Su 07:00-22:00",
          "operator": "Mega Image",
          "operator:wikidata": "Q6808085",
          "shop": "convenience",
          "source": "MS",
          "wheelchair": "limited"
        }
      },
      "geometry": {
        "type": "Point",
        "coordinates": [
          26.1344193,
          44.4399473
        ]
      }
    },
    {
      "type": "Feature",
      "properties": {
        "type": "node",
        "id": 2637394289,
        "tags": {
          "addr:city": "Bucure\u0219ti",
          "addr:housenumber": "8",
          "addr:postcode": "021563",
          "addr:postcode:source": "Date de la Po\u0219ta Rom\u00e2n\u0103, publicate sub Licen\u021ba pentru Guvernare Deschis\u0103 v1.0 la http://date.gov.ro/organization/posta-romana",
          "addr:street": "Strada Chiristigiilor",
          "name": "Minimarket",
          "opening_hours": "Mo-Fr 08:00-21:00; Sa,Su 08:00-20:00",
          "shop": "convenience",
          "wheelchair": "limited"
        }
      },
      "geometry": {
        "type": "Point",
        "coordinates": [
          26.1280242,
          44.4476645
        ]
      }
    },
    {
      "type": "Feature",
      "properties": {
        "type": "node",
        "id": 2637394290,
        "tags": {
          "addr:city": "Bucure\u0219ti",
          "addr:housenumber": "12",
          "addr:street": "Bulevardul G\u0103rii Obor",
          "check_date": "2022-05-23",
          "shop": "vacant"
        }
      },
      "geometry": {
        "type": "Point",
        "coordinates": [
          26.1415491,
          44.4476797
        ]
      }
    },
    {
      "type": "Feature",
      "properties": {
        "type": "node",
        "id": 2637394291,
        "tags": {
          "addr:city": "Bucure\u0219ti",
          "check_date": "2022-12-28",
          "shop": "vacant"
        }
      },
      "geometry": {
        "type": "Point",
        "coordinates": [
          26.1234257,
          44.4476461
        ]
      }
    },
    {
      "type": "Feature",
      "properties": {
        "type": "node",
        "id": 2637394407,
        "tags": {
          "addr:city": "Bucure\u0219ti",
          "addr:housenumber": "92",
          "addr:postcode": "023678",
          "addr:postcode:source": "Date de la Po\u0219ta Rom\u00e2n\u0103, publicate sub Licen\u021ba pentru Guvernare Deschis\u0103 v1.0 la http://date.gov.ro/organization/posta-romana",
          "addr:street": "Strada Grigore Ionescu",
          "name": "Lactate B\u00e2rsan",
          "shop": "dairy",
          "source": "MS",
          "source:link": "http://data.gov.ro/dataset/situatia-farmaciilor-din-romania",
          "wheelchair": "yes"
        }
      },
      "geometry": {
        "type": "Point",
        "coordinates": [
          26.1241314,
          44.4591778
        ]
      }
    },
    {
      "type": "Feature",
      "properties": {
        "type": "node",
        "id": 2663523240,
        "tags": {
          "name": "Million",
          "shop": "bookmaker"
        }
      },
      "geometry": {
        "type": "Point",
        "coordinates": [
          26.1593238,
          44.4349971
        ]
      }
    },
    {
      "type": "Feature",
      "properties": {
        "type": "node",
        "id": 2815557036,
        "tags": {
          "addr:city": "Bucure\u0219ti",
          "addr:street": "Bulevardul Basarabia",
          "brand": "Shop&Go",
          "brand:wikidata": "Q114644174",
          "name": "Shop&Go",
          "operator": "Mega Image",
          "operator:wikidata": "Q6808085",
          "shop": "convenience"
        }
      },
      "geometry": {
        "type": "Point",
        "coordinates": [
          26.1508481,
          44.432876
        ]
      }
    },
    {
      "type": "Feature",
      "properties": {
        "type": "node",
        "id": 2839221251,
        "tags": {
          "addr:city": "Bucure\u0219ti",
          "addr:housenumber": "114",
          "addr:street": "Strada Preot Vasile Lucaciu",
          "name": "Masaj Erotic Ador Bucuresti",
          "phone": "+40737.534.950",
          "shop": "massage",
          "source": "http://urbanism.pmb.ro;legea 544/2001;survey",
          "website": "https://adormasaj.ro"
        }
      },
      "geometry": {
        "type": "Point",
        "coordinates": [
          26.1237207,
          44.4316098
        ]
      }
    },
    {
      "type": "Feature",
      "properties": {
        "type": "node",
        "id": 2928572201,
        "tags": {
          "addr:street": "Bulevardul Chi\u0219in\u0103u",
          "name": "Total Max Market",
          "opening_hours": "24/7",
          "shop": "convenience",
          "source": "survey"
        }
      },
      "geometry": {
        "type": "Point",
        "coordinates": [
          26.1590819,
          44.4377266
        ]
      }
    },
    {
      "type": "Feature",
      "properties": {
        "type": "node",
        "id": 2929087589,
        "tags": {
          "addr:city": "Bucure\u0219ti",
          "check_date:opening_hours": "2025-07-01",
          "name": "Cristim",
          "opening_hours": "Mo-Fr 08:00-20:30; Sa 08:00-17:00; Su 08:00-15:00",
          "shop": "butcher"
        }
      },
      "geometry": {
        "type": "Point",
        "coordinates": [
          26.1284662,
          44.4553599
        ]
      }
    },
    {
      "type": "Feature",
      "properties": {
        "type": "node",
        "id": 2929099508,
        "tags": {
          "addr:city": "Bucure\u0219ti",
          "shop": "convenience"
        }
      },
      "geometry": {
        "type": "Point",
        "coordinates": [
          26.1291348,
          44.4567925
        ]
      }
    },
    {
      "type": "Feature",
      "properties": {
        "type": "node",
        "id": 2931540801,
        "tags": {
          "addr:city": "Bucure\u0219ti",
          "branch": "Bucur Obor",
          "brand": "Orange",
          "brand:wikidata": "Q1431486",
          "brand:wikipedia": "fr:Orange (entreprise)",
          "check_date": "2025-05-10",
          "name": "Orange",
          "opening_hours": "Mo-Fr 09:00-19:30; Sa 09:00-14:00",
          "shop": "mobile_phone",
          "source": "survey",
          "wheelchair": "yes"
        }
      },
      "geometry": {
        "type": "Point",
        "coordinates": [
          26.1259974,
          44.4504422
        ]
      }
    },
    {
      "type": "Feature",
      "properties": {
        "type": "node",
        "id": 2942589801,
        "tags": {
          "addr:city": "Bucure\u0219ti",
          "addr:housenumber": "92",
          "addr:postcode": "021638",
          "addr:street": "\u0218oseaua Pantelimon",
          "brand": "Profi",
          "brand:wikidata": "Q956664",
          "contact:email": "contact@profi.ro",
          "contact:facebook": "https://www.facebook.com/Profi.ro",
          "contact:instagram": "https://www.instagram.com/profi.ro",
          "contact:phone": "+40 727 229 576;+40 735 005 348",
          "contact:website": "https://www.profi.ro/",
          "contact:youtube": "https://www.youtube.com/user/magazineleprofi",
          "is_in:city": "Bucure\u0219ti",
          "name": "Profi",
          "opening_hours": "24/7",
          "operator": "Profi Rom Food",
          "shop": "supermarket",
          "wheelchair": "yes"
        }
      },
      "geometry": {
        "type": "Point",
        "coordinates": [
          26.1418127,
          44.4442174
        ]
      }
    },
    {
      "type": "Feature",
      "properties": {
        "type": "node",
        "id": 2955890748,
        "tags": {
          "check_date": "2023-04-23",
          "shop": "vacant"
        }
      },
      "geometry": {
        "type": "Point",
        "coordinates": [
          26.1322543,
          44.4330796
        ]
      }
    },
    {
      "type": "Feature",
      "properties": {
        "type": "node",
        "id": 2957926536,
        "tags": {
          "addr:city": "Bucure\u0219ti",
          "addr:country": "RO",
          "addr:housenumber": "174",
          "addr:postcode": "030629",
          "addr:street": "Calea C\u0103l\u0103ra\u0219ilor",
          "brand": "Shop&Go",
          "brand:wikidata": "Q114644174",
          "name": "Shop&Go",
          "opening_hours": "Mo-Su 08:00-22:00",
          "operator": "Mega Image",
          "operator:wikidata": "Q6808085",
          "shop": "convenience",
          "source": "survey",
          "website": "https://www.mega-image.ro/",
          "wheelchair": "limited"
        }
      },
      "geometry": {
        "type": "Point",
        "coordinates": [
          26.125997,
          44.4321589
        ]
      }
    },
    {
      "type": "Feature",
      "properties": {
        "type": "node",
        "id": 2960486133,
        "tags": {
          "addr:city": "Bucure\u0219ti",
          "addr:street": "Bulevardul Pache Protopopescu",
          "brand": "Shop&Go",
          "brand:wikidata": "Q114644174",
          "name": "Shop&Go",
          "opening_hours": "Mo-Su 07:00-22:00",
          "operator": "Mega Image",
          "operator:wikidata": "Q6808085",
          "shop": "convenience",
          "source": "survey",
          "wheelchair": "limited"
        }
      },
      "geometry": {
        "type": "Point",
        "coordinates": [
          26.1292695,
          44.4403524
        ]
      }
    },
    {
      "type": "Feature",
      "properties": {
        "type": "node",
        "id": 2962081833,
        "tags": {
          "name": "Croitorie",
          "opening_hours": "Mo-Fr 09:00-17:00; Sa 09:00-13:00",
          "shop": "tailor",
          "source": "survey",
          "wheelchair": "no"
        }
      },
      "geometry": {
        "type": "Point",
        "coordinates": [
          26.1438542,
          44.4426264
        ]
      }
    },
    {
      "type": "Feature",
      "properties": {
        "type": "node",
        "id": 2969320733,
        "tags": {
          "check_date:opening_hours": "2022-03-24",
          "female": "yes",
          "name": "Dana's Beauty Salon",
          "opening_hours": "Mo-Fr 10:00-20:00; Sa 09:00-20:00; Su 09:00-14:00",
          "shop": "hairdresser",
          "wheelchair": "limited"
        }
      },
      "geometry": {
        "type": "Point",
        "coordinates": [
          26.1570436,
          44.4337848
        ]
      }
    },
    {
      "type": "Feature",
      "properties": {
        "type": "node",
        "id": 2976421933,
        "tags": {
          "check_date": "2025-10-04",
          "name": "Mini Market Non-Stop",
          "opening_hours": "24/7",
          "shop": "convenience",
          "source": "survey",
          "wheelchair": "limited"
        }
      },
      "geometry": {
        "type": "Point",
        "coordinates": [
          26.1320892,
          44.4409479
        ]
      }
    },
    {
      "type": "Feature",
      "properties": {
        "type": "node",
        "id": 2981953341,
        "tags": {
          "name": "Mini Market Milana",
          "shop": "convenience",
          "source": "survey"
        }
      },
      "geometry": {
        "type": "Point",
        "coordinates": [
          26.1211122,
          44.4399309
        ]
      }
    },
    {
      "type": "Feature",
      "properties": {
        "type": "node",
        "id": 2983211233,
        "tags": {
          "addr:city": "Bucure\u0219ti",
          "addr:housenumber": "13",
          "addr:postcode": "021713",
          "addr:street": "\u0218oseaua Iancului",
          "brand": "Shop&Go",
          "brand:wikidata": "Q114644174",
          "check_date:opening_hours": "2025-01-02",
          "name": "Shop&Go",
          "opening_hours": "Mo-Su 07:30-22:00",
          "operator": "Mega Image",
          "operator:wikidata": "Q6808085",
          "shop": "convenience",
          "source": "survey",
          "wheelchair": "yes"
        }
      },
      "geometry": {
        "type": "Point",
        "coordinates": [
          26.1378344,
          44.4418782
        ]
      }
    },
    {
      "type": "Feature",
      "properties": {
        "type": "node",
        "id": 2994403881,
        "tags": {
          "check_date:opening_hours": "2022-04-26",
          "name": "Modern Photo",
          "opening_hours": "Mo-Fr 09:00-18:00",
          "shop": "photo",
          "wheelchair": "limited"
        }
      },
      "geometry": {
        "type": "Point",
        "coordinates": [
          26.1530933,
          44.4326533
        ]
      }
    },
    {
      "type": "Feature",
      "properties": {
        "type": "node",
        "id": 2994553762,
        "tags": {
          "name": "Jess Amanet",
          "opening_hours": "Mo-Fr 09:00-20:00; Sa 09:00-16:00; Su 09:00-14:00",
          "shop": "pawnbroker"
        }
      },
      "geometry": {
        "type": "Point",
        "coordinates": [
          26.1331139,
          44.4315326
        ]
      }
    },
    {
      "type": "Feature",
      "properties": {
        "type": "node",
        "id": 3005734333,
        "tags": {
          "check_date": "2023-11-05",
          "name": "Magazin Non-Stop",
          "opening_hours": "24/7",
          "shop": "convenience",
          "source": "survey",
          "wheelchair": "limited"
        }
      },
      "geometry": {
        "type": "Point",
        "coordinates": [
          26.1437615,
          44.4427207
        ]
      }
    },
    {
      "type": "Feature",
      "properties": {
        "type": "node",
        "id": 3007840834,
        "tags": {
          "shop": "funeral_directors"
        }
      },
      "geometry": {
        "type": "Point",
        "coordinates": [
          26.1572612,
          44.4320406
        ]
      }
    },
    {
      "type": "Feature",
      "properties": {
        "type": "node",
        "id": 3054651135,
        "tags": {
          "name": "Sta\u021bie I.T.P.",
          "shop": "car_repair",
          "source": "survey"
        }
      },
      "geometry": {
        "type": "Point",
        "coordinates": [
          26.1450263,
          44.446791
        ]
      }
    },
    {
      "type": "Feature",
      "properties": {
        "type": "node",
        "id": 3054745633,
        "tags": {
          "addr:city": "Bucure\u0219ti",
          "brand": "Kodak Express",
          "brand:wikidata": "Q6425126",
          "craft": "photographic_laboratory",
          "name": "Kodak Express",
          "opening_hours": "Mo-Fr 09:00-19:00; Sa 09:00-15:00",
          "shop": "photo",
          "source": "survey",
          "wheelchair": "limited"
        }
      },
      "geometry": {
        "type": "Point",
        "coordinates": [
          26.1603816,
          44.4431734
        ]
      }
    },
    {
      "type": "Feature",
      "properties": {
        "type": "node",
        "id": 3070655079,
        "tags": {
          "addr:city": "Bucure\u0219ti",
          "brand": "Stanleybet",
          "brand:wikidata": "Q25466489",
          "check_date": "2025-05-10",
          "name": "Stanleybet",
          "opening_hours": "Mo-Su 09:00-21:00",
          "shop": "bookmaker",
          "wheelchair": "limited"
        }
      },
      "geometry": {
        "type": "Point",
        "coordinates": [
          26.1267237,
          44.4516338
        ]
      }
    },
    {
      "type": "Feature",
      "properties": {
        "type": "node",
        "id": 3070655089,
        "tags": {
          "addr:city": "Bucure\u0219ti",
          "name": "Fashion For Help",
          "opening_hours": "Mo-Su 09:00-20:00",
          "second_hand": "only",
          "shop": "clothes"
        }
      },
      "geometry": {
        "type": "Point",
        "coordinates": [
          26.124457,
          44.448477
        ]
      }
    },
    {
      "type": "Feature",
      "properties": {
        "type": "node",
        "id": 3071131533,
        "tags": {
          "check_date": "2023-11-03",
          "name": "Flor\u0103rie Non-Stop",
          "opening_hours": "24/7",
          "shop": "florist",
          "wheelchair": "yes"
        }
      },
      "geometry": {
        "type": "Point",
        "coordinates": [
          26.1405303,
          44.4321507
        ]
      }
    },
    {
      "type": "Feature",
      "properties": {
        "type": "node",
        "id": 3071131535,
        "tags": {
          "name": "Piese Auto",
          "shop": "car_parts"
        }
      },
      "geometry": {
        "type": "Point",
        "coordinates": [
          26.1596886,
          44.436516
        ]
      }
    },
    {
      "type": "Feature",
      "properties": {
        "type": "node",
        "id": 3071142233,
        "tags": {
          "name": "Piese Auto",
          "shop": "car_parts"
        }
      },
      "geometry": {
        "type": "Point",
        "coordinates": [
          26.1322206,
          44.4373961
        ]
      }
    },
    {
      "type": "Feature",
      "properties": {
        "type": "node",
        "id": 3094848205,
        "tags": {
          "check_date:opening_hours": "2022-05-05",
          "name": "Flor\u0103rie",
          "opening_hours": "Mo-Sa 07:00-23:00; Su 07:00-21:00",
          "shop": "florist",
          "wheelchair": "yes"
        }
      },
      "geometry": {
        "type": "Point",
        "coordinates": [
          26.1602678,
          44.43519
        ]
      }
    },
    {
      "type": "Feature",
      "properties": {
        "type": "node",
        "id": 3097005839,
        "tags": {
          "check_date": "2023-11-11",
          "shop": "vacant"
        }
      },
      "geometry": {
        "type": "Point",
        "coordinates": [
          26.1245396,
          44.4395021
        ]
      }
    },
    {
      "type": "Feature",
      "properties": {
        "type": "node",
        "id": 3112658146,
        "tags": {
          "addr:city": "Bucure\u0219ti",
          "addr:street": "\u0218oseaua Mihai Bravu",
          "check_date:opening_hours": "2024-07-04",
          "name": "Cofet\u0103ria Alice",
          "opening_hours": "Su 10:00-19:00; Mo,Tu 08:00-16:00; We-Sa 08:00-20:00",
          "shop": "confectionery",
          "wheelchair": "yes"
        }
      },
      "geometry": {
        "type": "Point",
        "coordinates": [
          26.1358532,
          44.4389119
        ]
      }
    },